{
  "markers": [
   
    {
      "title": "Adelaide",
      "address": "5 Comley St.<br />Export Park, South Australia, 5950<br />Adelaide, Australia",
      "location": [-34.9454042, 138.52372460000004],
      "phone": "+61 8 8355 9200",
      "image": "/assets/img/card/careers3.jpg",
      "country": "Australia"
    },

    {
      "title": "Ahmedabad",
      "address": "Skygourmet Catering Pvt Ltd<br />78/22 Hansol Patel Vas<br />Opp Khodiar Society<br />Sardar Nagar<br />Ahmedabad &ndash; 382 475<br />India",
      "location": [23.0830442, 72.6204227000001],
      "phone": "+91 96013 88883",
      "image": "/assets/img/card/careers2.jpg",
      "country": "India"
    },

    {
      "title": "Astana",
      "address": "Kabanbay batyra avenue 119<br />Astana, 010000<br />Kazakhstan",
      "location": [51.1044133, 71.40790760000004],
      "phone": "+7 7172 954360",
      "fax": "+7 7172 954366",
      "email": "Info_TSE@gategroup.com",
      "image": "/assets/img/card/contact.jpg",
      "country": "Kazakhstan"
    },

    {
      "title": "Auckland",
      "address": "Facility Address:<br />ABN: 9429030180765<br />3 Tom Pearce Drive<br />Auckland International Airport<br /><br />Mailing Address:<br />P.O. Box 53 112<br />Auckland International Airport<br />Manukau 2150<br />New Zealand",
      "location": [-37.0000872, 174.8000789],
      "phone": "+64 9275 3000",
      "image": "/assets/img/card/careers1.jpg",
      "country": "New Zealand"
    },

    {
      "title": "Brisbane",
      "address": "Unit 3, 1-3 Westringia Road<br />Brisbane Airport  QLD  4008<br />Australia",
      "location": [-27.4109446, 153.09735750000004],
      "image": "/assets/img/cta/contact-us.jpg",
      "country": "Australia"
    },

    {
      "title": "Cairns",
      "address": "Corner Caudron Avenue and Gypsy Moth Drive <br />P.O. Box 576<br />Cairns, QLD 4870<br />Australia",
      "location": [-16.9203287, 145.7708524],
      "phone": "+61 7 4080 1500",
      "fax": "+61 7 4080 1581",
      "image": "/assets/img/card/contact-2.jpg",
      "country": "Australia"
    },

    {
      "title": "Clark (Miascor Catering) ",
      "address": "Miascor (Clark) Catering Services Corporation<br />Clark International Airport<br />Civil Aviation Complex<br />Clark Free Port Zone<br />Clark Field, Pampanga 2023<br />Philippines",
      "location": [15.18791, 120.549405],
      "phone": "+63 45 499 09 84 to 86",
      "fax": "+63 2 824 04 71",
      "image": "/assets/img/card/careers3.jpg",
      "country": "Philippines"
    },

    {
      "title": "Coolangatta",
      "address": "15/63 Ourimbah Rd.<br />Tweedheads, NSW, 2485<br />Coolangatta, Australia",
      "location": [-28.175169, 153.522646],
      "phone": "+61-07-55994468",
      "email": "galley@gategroup.com",
      "image": "/assets/img/card/careers2.jpg",
      "country": "Australia"
    },

    {
      "title": "Darwin",
      "address": "444 Stuart Highway, Winnellie<br />P.O. Box 39289 Winnellie<br />Darwin, Northern Territory 0820<br />Australia",
      "location": [-12.425689, 130.88027],
      "phone": "+61 8 8944 2900",
      "image": "/assets/img/card/contact.jpg",
      "country": "Australia"
    },

    {
      "title": "Delhi",
      "address": "Off International Airport Approach Road<br />Indira Gandhi International Airport Complex<br />New Delhi &ndash; 110 037<br />India",
      "location": [28.5559153, 77.1062664],
      "phone": "+91 11 4766 7601",
      "image": "/assets/img/card/careers1.jpg",
      "country": "India"
    },

    {
      "title": "Hiroshima",
      "address": "Hiroshima Airport Sub Terminal North, 94-95, Kitazokidani, Zennyuji<br />Hong-cho, Mihara-City<br />Hiroshima Pref. 729-0416<br />Japan",
      "location": [34.3965603, 132.4596225],
      "phone": "+81 848 86 9001",
      "fax": "+81 848 86 9090",
      "image": "/assets/img/cta/contact-us.jpg",
      "country": "Japan"
    },

    {
      "title": "Hong Kong",
      "address": "10 Catering Road West<br />Hong Kong International Airport<br />Lantau<br />Hong Kong",
      "location": [22.303648, 113.931633],
      "phone": "+852 298 876 88",
      "fax": "+852 294 998 28",
      "image": "/assets/img/card/contact-2.jpg",
      "country": "Hong Kong"
    },

    {
      "title": "Hyderabad",
      "address": "Rajiv Gandhi International Airport<br />Shamshabad, Ranga Reddy District<br />Andhra Pradesh &ndash; 500 409<br />Hyderabad <br />India",
      "location": [17.2366576, 78.4298946],
      "phone": "+91 40 2400 6333",
      "fax": "+91 40 2400 6344",
      "image": "/assets/img/card/careers3.jpg",
      "country": "India"
    },

    {
      "title": "Manila (Miascor Catering)",
      "address": "NAIA In-flight Catering City, West Service Rd.<br />Merville Exit, South Super Highway<br />P.O. Box 7080 Domestic Airport<br />Pasay City 1300, Metro Manila<br />Philippines",
      "location": [14.5505158, 120.9874682],
      "phone": "+63 2 8240 456",
      "fax": "+63 2 8240 271",
      "image": "/assets/img/card/careers2.jpg",
      "country": "Philippines"
    },

    {
      "title": "Melbourne",
      "address": "4-12 Reid Way, VIC, 3045<br />Melbourne Airport, Australia",
      "location": [-37.814107, 144.96328],
      "phone": "+61 3 9933 4600",
      "fax": "+61 3 9338 0571",
      "email": "MEL.admin@gategroup.com",
      "image": "/assets/img/card/contact.jpg",
      "country": "Australia"
    },

    {
      "title": "Mumbai",
      "address": "Off International Airport Approach Road<br />Marol, Andheri (East)<br />Mumbai &ndash; 400 059<br />India",
      "location": [19.1173012, 72.8840395],
      "image": "/assets/img/card/careers1.jpg",
      "country": "India"
    },

    {
      "title": "Perth",
      "address": "Unit A5-6 / 20 Tartlon Crescent,<br />Newburn, WA, 6105",
      "location": [-31.96765779999999, 115.97057199999995],
      "image": "/assets/img/cta/contact-us.jpg",
      "country": "Australia"
    },

    {
      "title": "Phnom Penh",
      "address": "Cambodia Air Catering Services Ltd<br />Russian Confederation Blvd<br />Kakab Commune<br />Posenchey District, Phnom Penh<br />Kingdom of Cambodia",
      "location": [11.5448729, 104.89216680000004],
      "phone": "+855 23 890 288",
      "email": "Cambodia@gategroup.com",
      "image": "/assets/img/card/contact-2.jpg",
      "country": "Cambodia"
    },

    {
      "title": "Pune",
      "address": "Skygourmet catering Pvt Ltd<br />c/f, Hyatt Regency<br />Weikfield, IT Park<br />Pune Nagar Road<br />Pune - 411014<br />India",
      "location": [18.5204303, 73.8567436999999],
      "phone": "+91 22 4090 6156",
      "email": "salvares@gategroup.com",
      "image": "/assets/img/card/careers3.jpg",
      "country": "India"
    },

    {
      "title": "Shanghai",
      "address": "Shanghai Pudong Intl. Airport<br />No. 100 Ling Hang Road<br />Shanghai Pudong Intl. Airport<br />Pudong New Area<br />Shanghai 201207<br />China",
      "location": [31.230416, 121.473701],
      "phone": "+86 21 6834 3363 ext. 804",
      "fax": "+86 21 6834 3480",
      "image": "/assets/img/card/careers2.jpg",
      "country": "China"
    },

    {
      "title": "Siem Reap",
      "address": "Cambodia Air Catering Services Ltd<br />Airport Road, Kok Dong Village, Pouk District<br />Siem Reap International Airport, Siem Reap<br />Kingdom of Cambodia",
      "location": [13.411632, 103.81298600000002],
      "phone": "+855 63 760 231",
      "email": "Cambodia@gategroup.com",
      "image": "/assets/img/card/contact.jpg",
      "country": "Cambodia"
    },

    {
      "title": "Sydney &ndash; Coward Street",
      "address": "ABN: 49 009 767 408<br />300 Coward St.<br />P.O. Box 479<br />Mascot, NSW 2020<br />Australia",
      "location": [-33.9231386, 151.178975],
      "phone": "+61 2 9669 9200",
      "fax": "+61 2 9669 9202",
      "image": "/assets/img/card/careers1.jpg",
      "country": "Australia"

    },

    {
      "title": "Tokyo &ndash; Haneda",
      "address": "Kawasaki FAZ Building 6-10<br />Higashi Ohgishima<br />Kawasaki-ku<br />Kawasaki City<br />Kanagawa 210-0869<br />Japan",
      "location": [35.529667, 139.7038482],
      "phone": "+81 44 280 2290",
      "fax": "+81 44 280 2232",
      "image": "/assets/img/cta/contact-us.jpg",
      "country": "Japan"
    },

    {
      "title": "Tokyo &ndash; Narita",
      "address": "1-720 Sanrizuka<br />Narita-shi<br />Chiba-ken, 286-0111<br />Japan",
      "location": [35.7475595, 140.3820062],
      "phone": "+81 476 32 1170",
      "fax": "+81 476 32 1872",
      "image": "/assets/img/card/contact-2.jpg",
      "country": "Japan"
    }
  ]
}
